{
  "businesses": [
    {
      "name": "Lehamim Bakery",
      "ID": "11111111",
      "type": "bakery",
      "latitude": 32.069657,
      "longitude": 34.784563,
      "address": "HaHashmonaim St 103, Tel Aviv-Yafo",
	  "hours": "7AM–8:30PM",
	  "phoneNumber": "03-561-8111",
	  "logoURL": "insert jpg file",
	  "discountStartHour": "20:00"
    },

    {
      "name": "Zomer Bakery",
      "ID": "11111112",
	  "type": "bakery",
      "latitude": 32.079852,
      "longitude": 34.773613,
      "address": "Frishman St 39, Tel Aviv-Yafo",
	  "hours": "7AM–8:30PM",
	  "phoneNumber": "03-523-3396",
	  "logoURL": "insert jpg file",
	  "discountStartHour": "19:00"
    },

	{
      "name": "Boutique Central",
      "ID": "11111113",
      "type": "patisserie",
      "latitude": 32.079356,
      "longitude": 34.779773,
      "address": "Frishman St 90, Tel Aviv-Yafo",
      "hours": "7AM–8:00PM",
      "phoneNumber": "1-700-700-061",
	  "logoURL": "insert jpg file",
	  "discountStartHour": "18:30"
    }

	]
}